depot_code,depot_name,city,lat,lon
LDN,London Dagenham,London,51.54,0.13
BHM,Birmingham Hub,Birmingham,52.48,-1.9
MAN,Manchester Trafford,Manchester,53.48,-2.24
LDS,Leeds Stourton,Leeds,53.78,-1.52
BRS,Bristol Avonmouth,Bristol,51.5,-2.7
GLA,Glasgow Eurocentral,Glasgow,55.86,-4.25
NCL,Newcastle Team Valley,Newcastle,54.95,-1.67
SOU,Southampton Nursling,Southampton,50.93,-1.47
